[
{
"id": 721,
"name": "the pink taco",
"location": {
"city": "brisbane",
"state": "california"
}
},
{
"id": 30,
"name": "biggs skatepark",
"location": {
"city": "biggs",
"state": "california"
}
},
{
"id": 4,
"name": "downtown skate zone",
"location": {
"city": "anaheim",
"state": "california"
}
},
{
"id": 5,
"name": "south volante skatepark",
"location": {
"city": "anderson",
"state": "california"
}
},
{
"id": 6,
"name": "antioch skatepark",
"location": {
"city": "antioch",
"state": "california"
}
},
{
"id": 7,
"name": "3 diamonds skatepark",
"location": {
"city": "apple valley",
"state": "california"
}
},
{
"id": 9,
"name": "rampart",
"location": {
"city": "arcata",
"state": "california"
}
},
{
"id": 10,
"name": "arcata skatepark",
"location": {
"city": "arcata",
"state": "california"
}
},
{
"id": 12,
"name": "osborn skatepark",
"location": {
"city": "atwater",
"state": "california"
}
},
{
"id": 13,
"name": "auburn skatepark",
"location": {
"city": "auburn",
"state": "california"
}
},
{
"id": 14,
"name": "avalon skatepark",
"location": {
"city": "avalon",
"state": "california"
}
},
{
"id": 15,
"name": "avenal skatepark",
"location": {
"city": "avenal",
"state": "california"
}
},
{
"id": 16,
"name": "azusa skatepark",
"location": {
"city": "azusa",
"state": "california"
}
},
{
"id": 17,
"name": "beach park",
"location": {
"city": "bakersfield",
"state": "california"
}
},
{
"id": 19,
"name": "kernside",
"location": {
"city": "bakersfield",
"state": "california"
}
},
{
"id": 21,
"name": "banning skatepark",
"location": {
"city": "banning",
"state": "california"
}
},
{
"id": 22,
"name": "dana park skatepark",
"location": {
"city": "barstow",
"state": "california"
}
},
{
"id": 24,
"name": "caruthers park",
"location": {
"city": "bellflower",
"state": "california"
}
},
{
"id": 25,
"name": "highland skatepark",
"location": {
"city": "ben lomond",
"state": "california"
}
},
{
"id": 26,
"name": "x-park",
"location": {
"city": "benicia",
"state": "california"
}
},
{
"id": 27,
"name": "orkin/hsang memorial skatepark",
"location": {
"city": "berkeley",
"state": "california"
}
},
{
"id": 29,
"name": "town skatepark",
"location": {
"city": "big bear lake",
"state": "california"
}
},
{
"id": 31,
"name": "bishop skatepark",
"location": {
"city": "bishop",
"state": "california"
}
},
{
"id": 32,
"name": "mesa skatepark",
"location": {
"city": "bolinas",
"state": "california"
}
},
{
"id": 3,
"name": "anaheim west",
"location": {
"city": "anaheim",
"state": "california"
}
},
{
"id": 722,
"name": "half moon bay ramp",
"location": {
"city": "half moon bay",
"state": "california"
}
},
{
"id": 40,
"name": "calexico nosotros skatepark",
"location": {
"city": "calexico",
"state": "california"
}
},
{
"id": 37,
"name": "brisbane skatepark",
"location": {
"city": "brisbane",
"state": "california"
}
},
{
"id": 723,
"name": "pinole skatepark",
"location": {
"city": "pinole",
"state": "california"
}
},
{
"id": 90,
"name": "delhi skatepark",
"location": {
"city": "delhi",
"state": "california"
}
},
{
"id": 35,
"name": "brea skatepark",
"location": {
"city": "brea",
"state": "california"
}
},
{
"id": 36,
"name": "brentwood skatepark",
"location": {
"city": "brentwood",
"state": "california"
}
},
{
"id": 41,
"name": "pleasant valley skatepark",
"location": {
"city": "camarillo",
"state": "california"
}
},
{
"id": 42,
"name": "cameron park skatepark",
"location": {
"city": "cameron park",
"state": "california"
}
},
{
"id": 43,
"name": "camp pendleton skatepark",
"location": {
"city": "camp pendleton",
"state": "california"
}
},
{
"id": 44,
"name": "campbell skatepark",
"location": {
"city": "campbell",
"state": "california"
}
},
{
"id": 45,
"name": "lanark skatepark",
"location": {
"city": "canoga park",
"state": "california"
}
},
{
"id": 47,
"name": "alga norte skatepark",
"location": {
"city": "carlsbad",
"state": "california"
}
},
{
"id": 48,
"name": "carson skatepark",
"location": {
"city": "carson",
"state": "california"
}
},
{
"id": 49,
"name": "adobe park skatepark",
"location": {
"city": "castro valley",
"state": "california"
}
},
{
"id": 50,
"name": "castroville skatepark",
"location": {
"city": "castroville",
"state": "california"
}
},
{
"id": 52,
"name": "ceres skatepark",
"location": {
"city": "ceres",
"state": "california"
}
},
{
"id": 53,
"name": "cerritos skatepark",
"location": {
"city": "cerritos",
"state": "california"
}
},
{
"id": 54,
"name": "the skate house",
"location": {
"city": "chatsworth",
"state": "california"
}
},
{
"id": 55,
"name": "chico skatepark",
"location": {
"city": "chico",
"state": "california"
}
},
{
"id": 56,
"name": "ayala park",
"location": {
"city": "chino",
"state": "california"
}
},
{
"id": 58,
"name": "heritage park skate plaza",
"location": {
"city": "chula vista",
"state": "california"
}
},
{
"id": 34,
"name": "blake davis skatepark",
"location": {
"city": "brawley",
"state": "california"
}
},
{
"id": 724,
"name": "monte family skatepark",
"location": {
"city": "capitola",
"state": "california"
}
},
{
"id": 68,
"name": "cloverdale skatepark",
"location": {
"city": "cloverdale",
"state": "california"
}
},
{
"id": 64,
"name": "winding walk skate plaza",
"location": {
"city": "chula vista",
"state": "california"
}
},
{
"id": 65,
"name": "rusch skatepark",
"location": {
"city": "citrus heights",
"state": "california"
}
},
{
"id": 66,
"name": "claremont skatepark",
"location": {
"city": "claremont",
"state": "california"
}
},
{
"id": 67,
"name": "clearlake skatepark",
"location": {
"city": "clearlake",
"state": "california"
}
},
{
"id": 69,
"name": "letterman/rotary skatepark",
"location": {
"city": "clovis",
"state": "california"
}
},
{
"id": 70,
"name": "dateland park",
"location": {
"city": "coachella",
"state": "california"
}
},
{
"id": 72,
"name": "concord skatepark",
"location": {
"city": "concord",
"state": "california"
}
},
{
"id": 73,
"name": "corning skatepark",
"location": {
"city": "corning",
"state": "california"
}
},
{
"id": 75,
"name": "santana regional skatepark",
"location": {
"city": "corona",
"state": "california"
}
},
{
"id": 76,
"name": "deleo sports park",
"location": {
"city": "corona",
"state": "california"
}
},
{
"id": 77,
"name": "harada skatepark",
"location": {
"city": "corona (eastvale)",
"state": "california"
}
},
{
"id": 78,
"name": "orchard skatepark",
"location": {
"city": "corona (eastvale)",
"state": "california"
}
},
{
"id": 80,
"name": "coronado skatepark",
"location": {
"city": "coronado",
"state": "california"
}
},
{
"id": 81,
"name": "corte madera skatepark",
"location": {
"city": "corte madera",
"state": "california"
}
},
{
"id": 83,
"name": "crescent city skatepark",
"location": {
"city": "crescent city",
"state": "california"
}
},
{
"id": 84,
"name": "cudahy skatepark",
"location": {
"city": "cudahy",
"state": "california"
}
},
{
"id": 85,
"name": "culver city skatepark",
"location": {
"city": "culver city",
"state": "california"
}
},
{
"id": 86,
"name": "cypress skate plaza",
"location": {
"city": "cypress",
"state": "california"
}
},
{
"id": 87,
"name": "daly city skatepark",
"location": {
"city": "daly city",
"state": "california"
}
},
{
"id": 88,
"name": "davis skatepark",
"location": {
"city": "davis",
"state": "california"
}
},
{
"id": 89,
"name": "delano skatepark",
"location": {
"city": "delano",
"state": "california"
}
},
{
"id": 725,
"name": "stanton skatepark",
"location": {
"city": "stanton",
"state": "california"
}
},
{
"id": 96,
"name": "pamela park",
"location": {
"city": "duarte",
"state": "california"
}
},
{
"id": 99,
"name": "arnold park",
"location": {
"city": "edwards air force base",
"state": "california"
}
},
{
"id": 93,
"name": "diamond bar skatepark",
"location": {
"city": "diamond bar",
"state": "california"
}
},
{
"id": 94,
"name": "dixon skatepark",
"location": {
"city": "dixon",
"state": "california"
}
},
{
"id": 95,
"name": "independence park",
"location": {
"city": "downey",
"state": "california"
}
},
{
"id": 98,
"name": "emerald glen skatepark",
"location": {
"city": "dublin",
"state": "california"
}
},
{
"id": 101,
"name": "renette skate plaza",
"location": {
"city": "el cajon",
"state": "california"
}
},
{
"id": 102,
"name": "sidewinder skatepark",
"location": {
"city": "el centro",
"state": "california"
}
},
{
"id": 103,
"name": "el dorado hills skatepark",
"location": {
"city": "el dorado hills",
"state": "california"
}
},
{
"id": 105,
"name": "derr-okamota park",
"location": {
"city": "elk grove",
"state": "california"
}
},
{
"id": 106,
"name": "wackford community center",
"location": {
"city": "elk grove",
"state": "california"
}
},
{
"id": 107,
"name": "shasta community park",
"location": {
"city": "elk grove",
"state": "california"
}
},
{
"id": 108,
"name": "morse park",
"location": {
"city": "elk grove",
"state": "california"
}
},
{
"id": 109,
"name": "antonio ramos memorial skatepark",
"location": {
"city": "emeryville",
"state": "california"
}
},
{
"id": 110,
"name": "magdalena ecke family ymca",
"location": {
"city": "encinitas",
"state": "california"
}
},
{
"id": 111,
"name": "leucadia oaks",
"location": {
"city": "encinitas",
"state": "california"
}
},
{
"id": 112,
"name": "community skatepark",
"location": {
"city": "encinitas",
"state": "california"
}
},
{
"id": 113,
"name": "pedlow",
"location": {
"city": "encino",
"state": "california"
}
},
{
"id": 115,
"name": "eureka skatepark",
"location": {
"city": "eureka",
"state": "california"
}
},
{
"id": 117,
"name": "travis air force base",
"location": {
"city": "fairfield",
"state": "california"
}
},
{
"id": 118,
"name": "fillmore skatepark",
"location": {
"city": "fillmore",
"state": "california"
}
},
{
"id": 149,
"name": "hanford skatepark",
"location": {
"city": "hanford",
"state": "california"
}
},
{
"id": 92,
"name": "nude bowl",
"location": {
"city": "desert hot springs",
"state": "california"
}
},
{
"id": 726,
"name": "dan dever memorial skatepark",
"location": {
"city": "othello",
"state": "washington"
}
},
{
"id": 126,
"name": "fremont skatepark",
"location": {
"city": "fremont",
"state": "california"
}
},
{
"id": 127,
"name": "cary ramp park",
"location": {
"city": "fresno",
"state": "california"
}
},
{
"id": 130,
"name": "melody ramp park",
"location": {
"city": "fresno",
"state": "california"
}
},
{
"id": 123,
"name": "juniper community center (fontana south)",
"location": {
"city": "fontana",
"state": "california"
}
},
{
"id": 124,
"name": "foster city skatepark",
"location": {
"city": "foster city",
"state": "california"
}
},
{
"id": 125,
"name": "frazier park skatepark",
"location": {
"city": "frazier park",
"state": "california"
}
},
{
"id": 128,
"name": "kaiser ramp park",
"location": {
"city": "fresno",
"state": "california"
}
},
{
"id": 131,
"name": "mosqueda bike park",
"location": {
"city": "fresno",
"state": "california"
}
},
{
"id": 132,
"name": "romain ramp park",
"location": {
"city": "fresno",
"state": "california"
}
},
{
"id": 133,
"name": "the ark",
"location": {
"city": "fresno",
"state": "california"
}
},
{
"id": 134,
"name": "todd beamer skatepark",
"location": {
"city": "fresno",
"state": "california"
}
},
{
"id": 135,
"name": "independence park",
"location": {
"city": "fullerton",
"state": "california"
}
},
{
"id": 137,
"name": "garden grove skatepark",
"location": {
"city": "garden grove",
"state": "california"
}
},
{
"id": 139,
"name": "rowley park",
"location": {
"city": "gardena",
"state": "california"
}
},
{
"id": 140,
"name": "gilroy skatepark",
"location": {
"city": "gilroy",
"state": "california"
}
},
{
"id": 141,
"name": "verdugo park",
"location": {
"city": "glendale",
"state": "california"
}
},
{
"id": 142,
"name": "glendora skatepark",
"location": {
"city": "glendora",
"state": "california"
}
},
{
"id": 143,
"name": "gonzales skatepark",
"location": {
"city": "gonzales",
"state": "california"
}
},
{
"id": 146,
"name": "gridley skatepark",
"location": {
"city": "gridley",
"state": "california"
}
},
{
"id": 147,
"name": "mary laveroni park",
"location": {
"city": "groveland",
"state": "california"
}
},
{
"id": 148,
"name": "south county skatepark",
"location": {
"city": "grover beach",
"state": "california"
}
},
{
"id": 121,
"name": "cummings skatepark",
"location": {
"city": "folsom",
"state": "california"
}
},
{
"id": 727,
"name": "skateland at 43rd ave",
"location": {
"city": "san francisco",
"state": "california"
}
},
{
"id": 728,
"name": "piru skatepark",
"location": {
"city": "piru",
"state": "california"
}
},
{
"id": 161,
"name": "indio skatepark",
"location": {
"city": "indio",
"state": "california"
}
},
{
"id": 176,
"name": "fritz burns park",
"location": {
"city": "la quinta",
"state": "california"
}
},
{
"id": 153,
"name": "cannery park",
"location": {
"city": "hayward",
"state": "california"
}
},
{
"id": 156,
"name": "veterans memorial park",
"location": {
"city": "hollister",
"state": "california"
}
},
{
"id": 157,
"name": "murdy park",
"location": {
"city": "huntington beach",
"state": "california"
}
},
{
"id": 158,
"name": "vans off the wall skatepark",
"location": {
"city": "huntington beach",
"state": "california"
}
},
{
"id": 159,
"name": "idyllwild skatepark",
"location": {
"city": "idyllwild",
"state": "california"
}
},
{
"id": 160,
"name": "imperial beach skatepark",
"location": {
"city": "imperial beach",
"state": "california"
}
},
{
"id": 162,
"name": "darby skatepark",
"location": {
"city": "inglewood",
"state": "california"
}
},
{
"id": 164,
"name": "vincent park skatepark",
"location": {
"city": "inglewood",
"state": "california"
}
},
{
"id": 165,
"name": "ione skatepark",
"location": {
"city": "ione",
"state": "california"
}
},
{
"id": 166,
"name": "mariners church",
"location": {
"city": "irvine",
"state": "california"
}
},
{
"id": 167,
"name": "harvard skatepark",
"location": {
"city": "irvine",
"state": "california"
}
},
{
"id": 168,
"name": "irwindale skatepark",
"location": {
"city": "irwindale",
"state": "california"
}
},
{
"id": 169,
"name": "jess martin park",
"location": {
"city": "julian",
"state": "california"
}
},
{
"id": 170,
"name": "king city skatepark",
"location": {
"city": "king city",
"state": "california"
}
},
{
"id": 172,
"name": "la mesa skatepark",
"location": {
"city": "la mesa",
"state": "california"
}
},
{
"id": 173,
"name": "4th ave skatepark",
"location": {
"city": "la puente (avocado heights)",
"state": "california"
}
},
{
"id": 174,
"name": "bassett park skatepark",
"location": {
"city": "la puente",
"state": "california"
}
},
{
"id": 175,
"name": "la quinta skatepark",
"location": {
"city": "la quinta",
"state": "california"
}
},
{
"id": 178,
"name": "teramore skatepark",
"location": {
"city": "ladera ranch",
"state": "california"
}
},
{
"id": 152,
"name": "tennyson park",
"location": {
"city": "hayward",
"state": "california"
}
},
{
"id": 182,
"name": "skate zone at serenity park",
"location": {
"city": "lake elsinore",
"state": "california"
}
},
{
"id": 183,
"name": "etnies skatepark",
"location": {
"city": "lake forest",
"state": "california"
}
},
{
"id": 184,
"name": "lindo lake skatepark",
"location": {
"city": "lakeside",
"state": "california"
}
},
{
"id": 185,
"name": "lathrop skatepark",
"location": {
"city": "lathrop",
"state": "california"
}
},
{
"id": 186,
"name": "lathrop skatepark",
"location": {
"city": "lathrop",
"state": "california"
}
},
{
"id": 187,
"name": "lemon grove skate spot",
"location": {
"city": "lemon grove",
"state": "california"
}
},
{
"id": 188,
"name": "lemoore skatepark",
"location": {
"city": "lemoore",
"state": "california"
}
},
{
"id": 189,
"name": "mcbean memorial park",
"location": {
"city": "lincoln",
"state": "california"
}
},
{
"id": 190,
"name": "sunken gardens skatepark",
"location": {
"city": "livermore",
"state": "california"
}
},
{
"id": 191,
"name": "kofu park skatepark",
"location": {
"city": "lodi",
"state": "california"
}
},
{
"id": 192,
"name": "lompoc skatepark",
"location": {
"city": "lompoc",
"state": "california"
}
},
{
"id": 193,
"name": "lone pine skatepark",
"location": {
"city": "lone pine",
"state": "california"
}
},
{
"id": 196,
"name": "el dorado skatepark",
"location": {
"city": "long beach",
"state": "california"
}
},
{
"id": 197,
"name": "houghton skatepark",
"location": {
"city": "long beach",
"state": "california"
}
},
{
"id": 198,
"name": "mcbride skatepark",
"location": {
"city": "long beach",
"state": "california"
}
},
{
"id": 199,
"name": "michael green skatepark",
"location": {
"city": "long beach",
"state": "california"
}
},
{
"id": 200,
"name": "orizaba skate spot",
"location": {
"city": "long beach",
"state": "california"
}
},
{
"id": 202,
"name": "blue anchor park",
"location": {
"city": "loomis",
"state": "california"
}
},
{
"id": 204,
"name": "lake st skatepark",
"location": {
"city": "los angeles",
"state": "california"
}
},
{
"id": 205,
"name": "lincoln park",
"location": {
"city": "los angeles",
"state": "california"
}
},
{
"id": 206,
"name": "marsh creek skatepark",
"location": {
"city": "los angeles",
"state": "california"
}
},
{
"id": 223,
"name": "venice skatepark",
"location": {
"city": "los angeles (venice)",
"state": "california"
}
},
{
"id": 210,
"name": "charmette bonpua skate plaza",
"location": {
"city": "los angeles",
"state": "california"
}
},
{
"id": 211,
"name": "diamond supply co. skate plaza",
"location": {
"city": "los angeles",
"state": "california"
}
},
{
"id": 212,
"name": "el sereno skatepark",
"location": {
"city": "los angeles",
"state": "california"
}
},
{
"id": 213,
"name": "gilbert lindsay skate plaza",
"location": {
"city": "los angeles",
"state": "california"
}
},
{
"id": 214,
"name": "hollenbeck skate plaza",
"location": {
"city": "los angeles",
"state": "california"
}
},
{
"id": 215,
"name": "imperial court skate plaza",
"location": {
"city": "los angeles",
"state": "california"
}
},
{
"id": 217,
"name": "lafayette skate plaza",
"location": {
"city": "los angeles",
"state": "california"
}
},
{
"id": 218,
"name": "garvanza skatepark",
"location": {
"city": "los angeles (highland park)",
"state": "california"
}
},
{
"id": 220,
"name": "hansen dam skatepark",
"location": {
"city": "los angeles (lake view terrace)",
"state": "california"
}
},
{
"id": 222,
"name": "sunland skatepark",
"location": {
"city": "los angeles (sunland tujunga)",
"state": "california"
}
},
{
"id": 224,
"name": "monitor skatepark",
"location": {
"city": "los angeles (watts)",
"state": "california"
}
},
{
"id": 226,
"name": "ambassador skatepark",
"location": {
"city": "los angeles (wilmington)",
"state": "california"
}
},
{
"id": 227,
"name": "los osos skatepark",
"location": {
"city": "los osos",
"state": "california"
}
},
{
"id": 228,
"name": "loyalton skatepark",
"location": {
"city": "loyalton",
"state": "california"
}
},
{
"id": 229,
"name": "lynwood skatepark",
"location": {
"city": "lynwood",
"state": "california"
}
},
{
"id": 230,
"name": "madera skatepark",
"location": {
"city": "madera",
"state": "california"
}
},
{
"id": 231,
"name": "volcom brothers skatepark",
"location": {
"city": "mammoth",
"state": "california"
}
},
{
"id": 232,
"name": "manteca skatepark",
"location": {
"city": "manteca",
"state": "california"
}
},
{
"id": 233,
"name": "marina skatepark",
"location": {
"city": "marina",
"state": "california"
}
},
{
"id": 234,
"name": "mariposa skatepark",
"location": {
"city": "mariposa",
"state": "california"
}
},
{
"id": 249,
"name": "lamorinda skatepark",
"location": {
"city": "moraga",
"state": "california"
}
},
{
"id": 247,
"name": "el estero skatepark",
"location": {
"city": "monterey",
"state": "california"
}
},
{
"id": 238,
"name": "applegate skatepark",
"location": {
"city": "merced",
"state": "california"
}
},
{
"id": 239,
"name": "mill valley skatepark",
"location": {
"city": "mill valley",
"state": "california"
}
},
{
"id": 241,
"name": "beebe skatepark",
"location": {
"city": "mission viejo",
"state": "california"
}
},
{
"id": 242,
"name": "modesto skatepark",
"location": {
"city": "modesto",
"state": "california"
}
},
{
"id": 244,
"name": "montclair skatepark",
"location": {
"city": "montclair",
"state": "california"
}
},
{
"id": 245,
"name": "russian river skatepark",
"location": {
"city": "monte rio",
"state": "california"
}
},
{
"id": 246,
"name": "montebello skatepark",
"location": {
"city": "montebello",
"state": "california"
}
},
{
"id": 251,
"name": "morgan hill skatepark",
"location": {
"city": "morgan hill",
"state": "california"
}
},
{
"id": 252,
"name": "rockies skatepark",
"location": {
"city": "morro bay",
"state": "california"
}
},
{
"id": 253,
"name": "shastice park",
"location": {
"city": "mount shasta",
"state": "california"
}
},
{
"id": 254,
"name": "rengstorff skateoark",
"location": {
"city": "mountain view",
"state": "california"
}
},
{
"id": 256,
"name": "napa rip zone skatepark",
"location": {
"city": "napa",
"state": "california"
}
},
{
"id": 258,
"name": "needles skatepark",
"location": {
"city": "needles",
"state": "california"
}
},
{
"id": 259,
"name": "doyle skatepark",
"location": {
"city": "norwalk",
"state": "california"
}
},
{
"id": 260,
"name": "novato skatepark",
"location": {
"city": "novato",
"state": "california"
}
},
{
"id": 261,
"name": "boys & girls club skatepark",
"location": {
"city": "oakhurst",
"state": "california"
}
},
{
"id": 262,
"name": "lower bob's",
"location": {
"city": "oakland",
"state": "california"
}
},
{
"id": 263,
"name": "oakland town park",
"location": {
"city": "oakland",
"state": "california"
}
},
{
"id": 237,
"name": "burgess skate park",
"location": {
"city": "menlo park",
"state": "california"
}
},
{
"id": 266,
"name": "melba bishop skatepark",
"location": {
"city": "oceanside",
"state": "california"
}
},
{
"id": 267,
"name": "john landes skatepark",
"location": {
"city": "oceanside",
"state": "california"
}
},
{
"id": 268,
"name": "libby lake skatepark",
"location": {
"city": "oceanside",
"state": "california"
}
},
{
"id": 272,
"name": "orange cove skatepark",
"location": {
"city": "orange cove",
"state": "california"
}
},
{
"id": 273,
"name": "bedrock skate & bike park",
"location": {
"city": "oroville",
"state": "california"
}
},
{
"id": 274,
"name": "oxnard skatepark",
"location": {
"city": "oxnard",
"state": "california"
}
},
{
"id": 275,
"name": "pacifica skatepark",
"location": {
"city": "pacifica",
"state": "california"
}
},
{
"id": 276,
"name": "norcal miniramp",
"location": {
"city": "pacifica",
"state": "california"
}
},
{
"id": 277,
"name": "nike/la84 skate plaza",
"location": {
"city": "pacoima",
"state": "california"
}
},
{
"id": 279,
"name": "palm desert skatepark",
"location": {
"city": "palm desert",
"state": "california"
}
},
{
"id": 280,
"name": "sunrise plaza skatepark",
"location": {
"city": "palm springs",
"state": "california"
}
},
{
"id": 281,
"name": "domenic massari park/chris o'leary skatepark",
"location": {
"city": "palmdale",
"state": "california"
}
},
{
"id": 282,
"name": "palmdale skatepark west",
"location": {
"city": "palmdale",
"state": "california"
}
},
{
"id": 283,
"name": "greer skatepark",
"location": {
"city": "palo alto",
"state": "california"
}
},
{
"id": 284,
"name": "village skatepark",
"location": {
"city": "paramount",
"state": "california"
}
},
{
"id": 285,
"name": "pasadena skatepark",
"location": {
"city": "pasadena",
"state": "california"
}
},
{
"id": 286,
"name": "patterson skatepark",
"location": {
"city": "patterson",
"state": "california"
}
},
{
"id": 288,
"name": "petaluma skatepark",
"location": {
"city": "petaluma",
"state": "california"
}
},
{
"id": 289,
"name": "pico rivera skatepark",
"location": {
"city": "pico rivera",
"state": "california"
}
},
{
"id": 290,
"name": "piedmont skatepark",
"location": {
"city": "piedmont",
"state": "california"
}
},
{
"id": 265,
"name": "alex road skatepark/prince park",
"location": {
"city": "oceanside",
"state": "california"
}
},
{
"id": 309,
"name": "rio vista skatepark",
"location": {
"city": "rio vista",
"state": "california"
}
},
{
"id": 294,
"name": "martin luther king skatepark",
"location": {
"city": "pomona",
"state": "california"
}
},
{
"id": 295,
"name": "palomares skatepark",
"location": {
"city": "pomona",
"state": "california"
}
},
{
"id": 296,
"name": "porterville skatepark",
"location": {
"city": "porterville",
"state": "california"
}
},
{
"id": 297,
"name": "poway skatepark",
"location": {
"city": "poway",
"state": "california"
}
},
{
"id": 300,
"name": "rancho cucamonga skatepark",
"location": {
"city": "rancho cucamonga",
"state": "california"
}
},
{
"id": 301,
"name": "rancho santa margarita skatepark",
"location": {
"city": "rancho santa margarita",
"state": "california"
}
},
{
"id": 303,
"name": "redding skatepark",
"location": {
"city": "redding",
"state": "california"
}
},
{
"id": 304,
"name": "phil shao memorial skatepark",
"location": {
"city": "redwood city",
"state": "california"
}
},
{
"id": 306,
"name": "margaret todd park",
"location": {
"city": "rialto",
"state": "california"
}
},
{
"id": 307,
"name": "nicholl skatepark",
"location": {
"city": "richmond",
"state": "california"
}
},
{
"id": 308,
"name": "ridgecrest skatepark",
"location": {
"city": "ridgecrest",
"state": "california"
}
},
{
"id": 310,
"name": "curt pernice skatepark",
"location": {
"city": "ripon",
"state": "california"
}
},
{
"id": 312,
"name": "bobby bonds skatepark",
"location": {
"city": "riverside",
"state": "california"
}
},
{
"id": 313,
"name": "hunt park",
"location": {
"city": "riverside",
"state": "california"
}
},
{
"id": 314,
"name": "jurupa skatepark",
"location": {
"city": "riverside (jurupa)",
"state": "california"
}
},
{
"id": 315,
"name": "rocklin skatepark",
"location": {
"city": "rocklin",
"state": "california"
}
},
{
"id": 316,
"name": "maidu skatepark",
"location": {
"city": "roseville",
"state": "california"
}
},
{
"id": 455,
"name": "hines skatepark",
"location": {
"city": "burns",
"state": "oregon"
}
},
{
"id": 292,
"name": "pleasanton skatepark",
"location": {
"city": "pleasanton",
"state": "california"
}
},
{
"id": 326,
"name": "baer skatepark",
"location": {
"city": "sacramento",
"state": "california"
}
},
{
"id": 333,
"name": "speicher park",
"location": {
"city": "san bernardino",
"state": "california"
}
},
{
"id": 319,
"name": "robla community skatepark",
"location": {
"city": "sacramento",
"state": "california"
}
},
{
"id": 321,
"name": "wild rose skatepark",
"location": {
"city": "sacramento",
"state": "california"
}
},
{
"id": 322,
"name": "winner's circle skatepark",
"location": {
"city": "sacramento",
"state": "california"
}
},
{
"id": 323,
"name": "granite skatepark",
"location": {
"city": "sacramento",
"state": "california"
}
},
{
"id": 324,
"name": "mcclatchy skatepark",
"location": {
"city": "sacramento",
"state": "california"
}
},
{
"id": 328,
"name": "orchard skatepark",
"location": {
"city": "sacramento",
"state": "california"
}
},
{
"id": 329,
"name": "regency community skatepark",
"location": {
"city": "sacramento",
"state": "california"
}
},
{
"id": 330,
"name": "reichmuth skatepark",
"location": {
"city": "sacramento",
"state": "california"
}
},
{
"id": 331,
"name": "salinas skatepark",
"location": {
"city": "salinas",
"state": "california"
}
},
{
"id": 336,
"name": "tierrasanta damato skatepark",
"location": {
"city": "san diego",
"state": "california"
}
},
{
"id": 337,
"name": "carmel valley skatepark",
"location": {
"city": "san diego",
"state": "california"
}
},
{
"id": 338,
"name": "campland on the bay skatepark",
"location": {
"city": "san diego",
"state": "california"
}
},
{
"id": 339,
"name": "salvation army kroc center skatepark",
"location": {
"city": "san diego",
"state": "california"
}
},
{
"id": 340,
"name": "memorial skatepark",
"location": {
"city": "san diego",
"state": "california"
}
},
{
"id": 341,
"name": "rancho penasquitos",
"location": {
"city": "san diego",
"state": "california"
}
},
{
"id": 342,
"name": "washington street",
"location": {
"city": "san diego",
"state": "california"
}
},
{
"id": 343,
"name": "robb field skatepark",
"location": {
"city": "san diego",
"state": "california"
}
},
{
"id": 344,
"name": "charles l lewiss iii memorial skatepark",
"location": {
"city": "san diego (paradise hills)",
"state": "california"
}
},
{
"id": 318,
"name": "robertson skatepark",
"location": {
"city": "sacramento",
"state": "california"
}
},
{
"id": 347,
"name": "crocker amazon",
"location": {
"city": "san francisco",
"state": "california"
}
},
{
"id": 348,
"name": "flower shop",
"location": {
"city": "san francisco",
"state": "california"
}
},
{
"id": 350,
"name": "soma skatepark",
"location": {
"city": "san francisco",
"state": "california"
}
},
{
"id": 351,
"name": "rosa parks skate plaza",
"location": {
"city": "san francisco",
"state": "california"
}
},
{
"id": 352,
"name": "great oaks",
"location": {
"city": "san jose",
"state": "california"
}
},
{
"id": 354,
"name": "mayfair park",
"location": {
"city": "san jose",
"state": "california"
}
},
{
"id": 355,
"name": "plata arroyo",
"location": {
"city": "san jose",
"state": "california"
}
},
{
"id": 356,
"name": "roosevelt park",
"location": {
"city": "san jose",
"state": "california"
}
},
{
"id": 357,
"name": "stonegate park",
"location": {
"city": "san jose",
"state": "california"
}
},
{
"id": 358,
"name": "thrasher park",
"location": {
"city": "san leandro",
"state": "california"
}
},
{
"id": 359,
"name": "jack holland sr. park",
"location": {
"city": "san leandro",
"state": "california"
}
},
{
"id": 361,
"name": "santa rosa skatepark",
"location": {
"city": "san luis obispo",
"state": "california"
}
},
{
"id": 363,
"name": "shoreview skatepark",
"location": {
"city": "san mateo",
"state": "california"
}
},
{
"id": 364,
"name": "beresford skatepark",
"location": {
"city": "san mateo",
"state": "california"
}
},
{
"id": 366,
"name": "peck park skatepark",
"location": {
"city": "san pedro",
"state": "california"
}
},
{
"id": 367,
"name": "mcinnis skatepark",
"location": {
"city": "san rafael",
"state": "california"
}
},
{
"id": 368,
"name": "sanger skatepark",
"location": {
"city": "sanger",
"state": "california"
}
},
{
"id": 369,
"name": "santa ana skatepark",
"location": {
"city": "santa ana",
"state": "california"
}
},
{
"id": 370,
"name": "skater's point skatepark",
"location": {
"city": "santa barbara",
"state": "california"
}
},
{
"id": 371,
"name": "santa clara skatepark",
"location": {
"city": "santa clara",
"state": "california"
}
},
{
"id": 373,
"name": "derby park",
"location": {
"city": "santa cruz",
"state": "california"
}
},
{
"id": 346,
"name": "balboa skatepark",
"location": {
"city": "san francisco",
"state": "california"
}
},
{
"id": 388,
"name": "shasta lake",
"location": {
"city": "shasta lake",
"state": "california"
}
},
{
"id": 391,
"name": "soledad skatepark",
"location": {
"city": "soledad",
"state": "california"
}
},
{
"id": 376,
"name": "fletcher park",
"location": {
"city": "santa maria",
"state": "california"
}
},
{
"id": 378,
"name": "one way board shop",
"location": {
"city": "santa maria",
"state": "california"
}
},
{
"id": 380,
"name": "west la courthouse",
"location": {
"city": "santa monica",
"state": "california"
}
},
{
"id": 381,
"name": "santa paula skatepark",
"location": {
"city": "santa paula",
"state": "california"
}
},
{
"id": 382,
"name": "santa rosa skatepark",
"location": {
"city": "santa rosa",
"state": "california"
}
},
{
"id": 383,
"name": "santee skatepark",
"location": {
"city": "santee",
"state": "california"
}
},
{
"id": 384,
"name": "tim brauch memorial skatepark",
"location": {
"city": "scotts valley",
"state": "california"
}
},
{
"id": 385,
"name": "laguna skategarden",
"location": {
"city": "sebastopol",
"state": "california"
}
},
{
"id": 387,
"name": "shafter skatepark",
"location": {
"city": "shafter",
"state": "california"
}
},
{
"id": 390,
"name": "woodward tahoe",
"location": {
"city": "soda springs (tahoe)",
"state": "california"
}
},
{
"id": 392,
"name": "hans christian anderson park",
"location": {
"city": "solvang",
"state": "california"
}
},
{
"id": 393,
"name": "sonoma skatepark",
"location": {
"city": "sonoma",
"state": "california"
}
},
{
"id": 394,
"name": "sonora skatepark",
"location": {
"city": "sonora",
"state": "california"
}
},
{
"id": 395,
"name": "south gate skatepark",
"location": {
"city": "south gate",
"state": "california"
}
},
{
"id": 396,
"name": "bijou skatepark",
"location": {
"city": "south lake tahoe",
"state": "california"
}
},
{
"id": 398,
"name": "south pasadena skatepark",
"location": {
"city": "south pasadena",
"state": "california"
}
},
{
"id": 399,
"name": "st. helena skatepark",
"location": {
"city": "st. helena",
"state": "california"
}
},
{
"id": 375,
"name": "jose avenue skatepark",
"location": {
"city": "santa cruz",
"state": "california"
}
},
{
"id": 415,
"name": "union city skatepark",
"location": {
"city": "union city",
"state": "california"
}
},
{
"id": 404,
"name": "taft skatepark",
"location": {
"city": "taft",
"state": "california"
}
},
{
"id": 417,
"name": "vacaville skatepark",
"location": {
"city": "vacaville",
"state": "california"
}
},
{
"id": 403,
"name": "sunnyvale skatepark",
"location": {
"city": "sunnyvale",
"state": "california"
}
},
{
"id": 405,
"name": "camp woodward west",
"location": {
"city": "tehachapi",
"state": "california"
}
},
{
"id": 407,
"name": "ronald reagan sports park",
"location": {
"city": "temecula",
"state": "california"
}
},
{
"id": 408,
"name": "templeton skatepark",
"location": {
"city": "templeton",
"state": "california"
}
},
{
"id": 409,
"name": "borchard skatepark",
"location": {
"city": "thousand oaks (newbury park)",
"state": "california"
}
},
{
"id": 410,
"name": "el pescadero skate track",
"location": {
"city": "tracy",
"state": "california"
}
},
{
"id": 411,
"name": "truckee skatepark",
"location": {
"city": "truckee",
"state": "california"
}
},
{
"id": 413,
"name": "twentynine palms skatepark",
"location": {
"city": "twentynine palms",
"state": "california"
}
},
{
"id": 414,
"name": "ukiah skatepark",
"location": {
"city": "ukiah",
"state": "california"
}
},
{
"id": 416,
"name": "upland skatepark",
"location": {
"city": "upland",
"state": "california"
}
},
{
"id": 418,
"name": "wardlaw skatepark",
"location": {
"city": "vallejo",
"state": "california"
}
},
{
"id": 420,
"name": "vandenberg air force base skatepark",
"location": {
"city": "vandenberg afb",
"state": "california"
}
},
{
"id": 421,
"name": "hobert",
"location": {
"city": "ventura",
"state": "california"
}
},
{
"id": 422,
"name": "pacific",
"location": {
"city": "ventura",
"state": "california"
}
},
{
"id": 423,
"name": "westpark",
"location": {
"city": "ventura",
"state": "california"
}
},
{
"id": 424,
"name": "provident skatepark",
"location": {
"city": "visalia",
"state": "california"
}
},
{
"id": 446,
"name": "brian haney memorial skatepark",
"location": {
"city": "aumsville",
"state": "oregon"
}
},
{
"id": 427,
"name": "wasco skatepark",
"location": {
"city": "wasco",
"state": "california"
}
},
{
"id": 429,
"name": "weed skatepark",
"location": {
"city": "weed",
"state": "california"
}
},
{
"id": 432,
"name": "liberty skatepark",
"location": {
"city": "westminster",
"state": "california"
}
},
{
"id": 433,
"name": "whittier skatepark",
"location": {
"city": "whittier",
"state": "california"
}
},
{
"id": 434,
"name": "willits skatepark",
"location": {
"city": "willits",
"state": "california"
}
},
{
"id": 435,
"name": "pat elsbree skatepark",
"location": {
"city": "windsor",
"state": "california"
}
},
{
"id": 436,
"name": "yreka skatepark",
"location": {
"city": "yreka",
"state": "california"
}
},
{
"id": 438,
"name": "church of glad tidings skatepark",
"location": {
"city": "yuba city",
"state": "california"
}
},
{
"id": 439,
"name": "yucaipa skatepark",
"location": {
"city": "yucaipa",
"state": "california"
}
},
{
"id": 440,
"name": "yucca valley skatepark",
"location": {
"city": "yucca valley",
"state": "california"
}
},
{
"id": 441,
"name": "adams skatepark",
"location": {
"city": "adams",
"state": "oregon"
}
},
{
"id": 443,
"name": "ashland skatepark",
"location": {
"city": "ashland",
"state": "oregon"
}
},
{
"id": 444,
"name": "tapiola park",
"location": {
"city": "astoria",
"state": "oregon"
}
},
{
"id": 445,
"name": "athena skatepark",
"location": {
"city": "athena",
"state": "oregon"
}
},
{
"id": 447,
"name": "sam-o skate park",
"location": {
"city": "baker city",
"state": "oregon"
}
},
{
"id": 448,
"name": "bay city skatepark",
"location": {
"city": "bay city",
"state": "oregon"
}
},
{
"id": 449,
"name": "evelyn schiffler park",
"location": {
"city": "beaverton",
"state": "oregon"
}
},
{
"id": 450,
"name": "tualatin hills park",
"location": {
"city": "beaverton",
"state": "oregon"
}
},
{
"id": 453,
"name": "boardman skatepark",
"location": {
"city": "boardman",
"state": "oregon"
}
},
{
"id": 454,
"name": "bud cross skatepark",
"location": {
"city": "brookings",
"state": "oregon"
}
},
{
"id": 426,
"name": "walnut creek skatepark",
"location": {
"city": "walnut creek",
"state": "california"
}
},
{
"id": 459,
"name": "joel tanzi skatepark",
"location": {
"city": "central point",
"state": "oregon"
}
},
{
"id": 461,
"name": "clatskanie skatepark",
"location": {
"city": "clatskanie",
"state": "oregon"
}
},
{
"id": 462,
"name": "mingus park",
"location": {
"city": "coos bay",
"state": "oregon"
}
},
{
"id": 463,
"name": "corbett skatepark",
"location": {
"city": "corbett",
"state": "oregon"
}
},
{
"id": 464,
"name": "eric scott mckinley skatepark",
"location": {
"city": "corvallis",
"state": "oregon"
}
},
{
"id": 465,
"name": "cottage grove skatepark",
"location": {
"city": "cottage grove",
"state": "oregon"
}
},
{
"id": 467,
"name": "donald skatepark",
"location": {
"city": "donald",
"state": "oregon"
}
},
{
"id": 468,
"name": "echo skatepark",
"location": {
"city": "echo",
"state": "oregon"
}
},
{
"id": 469,
"name": "enterprise skatepark",
"location": {
"city": "enterprise",
"state": "oregon"
}
},
{
"id": 471,
"name": "amazon park",
"location": {
"city": "eugene",
"state": "oregon"
}
},
{
"id": 472,
"name": "bethel skatepark",
"location": {
"city": "eugene",
"state": "oregon"
}
},
{
"id": 473,
"name": "cal young park",
"location": {
"city": "eugene",
"state": "oregon"
}
},
{
"id": 475,
"name": "emerald skatepark",
"location": {
"city": "eugene",
"state": "oregon"
}
},
{
"id": 476,
"name": "trainsong skatepark",
"location": {
"city": "eugene",
"state": "oregon"
}
},
{
"id": 477,
"name": "washington jefferson skatepark",
"location": {
"city": "eugene",
"state": "oregon"
}
},
{
"id": 479,
"name": "lincoln park",
"location": {
"city": "forest grove",
"state": "oregon"
}
},
{
"id": 480,
"name": "bullfrog skate park",
"location": {
"city": "gold beach",
"state": "oregon"
}
},
{
"id": 481,
"name": "gold hill skatepark",
"location": {
"city": "gold hill",
"state": "oregon"
}
},
{
"id": 483,
"name": "main city skatepark",
"location": {
"city": "gresham",
"state": "oregon"
}
},
{
"id": 484,
"name": "gresham skatepark",
"location": {
"city": "gresham",
"state": "oregon"
}
},
{
"id": 486,
"name": "harrisburg skatepark",
"location": {
"city": "harrisburg",
"state": "oregon"
}
},
{
"id": 458,
"name": "jubilee park",
"location": {
"city": "cave junction",
"state": "oregon"
}
},
{
"id": 510,
"name": "wayne c king memorial skatepark",
"location": {
"city": "ontario",
"state": "oregon"
}
},
{
"id": 490,
"name": "barendse park",
"location": {
"city": "hubbard",
"state": "oregon"
}
},
{
"id": 491,
"name": "don baxter skatepark",
"location": {
"city": "irrigon",
"state": "oregon"
}
},
{
"id": 492,
"name": "jacksonville skatepark",
"location": {
"city": "jacksonville",
"state": "oregon"
}
},
{
"id": 493,
"name": "smokey gibson memorial park",
"location": {
"city": "john day",
"state": "oregon"
}
},
{
"id": 495,
"name": "carlson skatepark",
"location": {
"city": "keizer",
"state": "oregon"
}
},
{
"id": 496,
"name": "klamath falls skatepark",
"location": {
"city": "klamath falls",
"state": "oregon"
}
},
{
"id": 497,
"name": "pioneer park",
"location": {
"city": "la grande",
"state": "oregon"
}
},
{
"id": 499,
"name": "madras skatepark",
"location": {
"city": "madras",
"state": "oregon"
}
},
{
"id": 500,
"name": "joe dancer park",
"location": {
"city": "mcminnville",
"state": "oregon"
}
},
{
"id": 502,
"name": "milton freewater skatepark",
"location": {
"city": "milton freewater",
"state": "oregon"
}
},
{
"id": 503,
"name": "molalla skatepark",
"location": {
"city": "molalla",
"state": "oregon"
}
},
{
"id": 504,
"name": "monmouth (independence) skatepark",
"location": {
"city": "monmouth (independence)",
"state": "oregon"
}
},
{
"id": 505,
"name": "millsite park",
"location": {
"city": "myrtle creek",
"state": "oregon"
}
},
{
"id": 507,
"name": "nehalem skatepark",
"location": {
"city": "nehalem",
"state": "oregon"
}
},
{
"id": 508,
"name": "ewing young park",
"location": {
"city": "newberg",
"state": "oregon"
}
},
{
"id": 509,
"name": "newport skatepark",
"location": {
"city": "newport",
"state": "oregon"
}
},
{
"id": 512,
"name": "rudy rada skatepark",
"location": {
"city": "pendleton",
"state": "oregon"
}
},
{
"id": 513,
"name": "philomath skatepark",
"location": {
"city": "philomath",
"state": "oregon"
}
},
{
"id": 514,
"name": "buffington park",
"location": {
"city": "port orford",
"state": "oregon"
}
},
{
"id": 515,
"name": "alberta/khunamokwst skate spot",
"location": {
"city": "portland",
"state": "oregon"
}
},
{
"id": 517,
"name": "burnside",
"location": {
"city": "portland",
"state": "oregon"
}
},
{
"id": 518,
"name": "ed benedict skate plaza",
"location": {
"city": "portland",
"state": "oregon"
}
},
{
"id": 488,
"name": "reedville park",
"location": {
"city": "hillsboro",
"state": "oregon"
}
},
{
"id": 539,
"name": "sweet home skatepark",
"location": {
"city": "sweet home",
"state": "oregon"
}
},
{
"id": 549,
"name": "oaken hills memorial park",
"location": {
"city": "willamina",
"state": "oregon"
}
},
{
"id": 521,
"name": "holly farm",
"location": {
"city": "portland",
"state": "oregon"
}
},
{
"id": 522,
"name": "pier park",
"location": {
"city": "portland",
"state": "oregon"
}
},
{
"id": 524,
"name": "prineville skatepark",
"location": {
"city": "prineville",
"state": "oregon"
}
},
{
"id": 525,
"name": "rainier skatepark",
"location": {
"city": "rainier",
"state": "oregon"
}
},
{
"id": 527,
"name": "reedsport skatepark",
"location": {
"city": "reedsport",
"state": "oregon"
}
},
{
"id": 529,
"name": "marion square park",
"location": {
"city": "salem",
"state": "oregon"
}
},
{
"id": 530,
"name": "sandy skatepark",
"location": {
"city": "sandy",
"state": "oregon"
}
},
{
"id": 531,
"name": "scappoose skatepark",
"location": {
"city": "scappoose",
"state": "oregon"
}
},
{
"id": 532,
"name": "skate 'n' ride park",
"location": {
"city": "seaside",
"state": "oregon"
}
},
{
"id": 534,
"name": "siletz skatepark",
"location": {
"city": "siletz",
"state": "oregon"
}
},
{
"id": 535,
"name": "silverton skatepark",
"location": {
"city": "silverton",
"state": "oregon"
}
},
{
"id": 537,
"name": "willamalane skatepark",
"location": {
"city": "springfield",
"state": "oregon"
}
},
{
"id": 538,
"name": "mccormick park",
"location": {
"city": "st. helens",
"state": "oregon"
}
},
{
"id": 540,
"name": "old town skatepark",
"location": {
"city": "talent",
"state": "oregon"
}
},
{
"id": 541,
"name": "thompson park skatepark",
"location": {
"city": "the dalles",
"state": "oregon"
}
},
{
"id": 543,
"name": "tualatin skatepark",
"location": {
"city": "tualatin",
"state": "oregon"
}
},
{
"id": 544,
"name": "territorial park",
"location": {
"city": "veneta",
"state": "oregon"
}
},
{
"id": 545,
"name": "waldport skatepark",
"location": {
"city": "waldport",
"state": "oregon"
}
},
{
"id": 546,
"name": "robinwood",
"location": {
"city": "west linn",
"state": "oregon"
}
},
{
"id": 548,
"name": "white city skatepark",
"location": {
"city": "white city",
"state": "oregon"
}
},
{
"id": 520,
"name": "glenhaven",
"location": {
"city": "portland",
"state": "oregon"
}
},
{
"id": 574,
"name": "buckley skatepark",
"location": {
"city": "buckley",
"state": "washington"
}
},
{
"id": 553,
"name": "aberdeen skatepark",
"location": {
"city": "aberdeen",
"state": "washington"
}
},
{
"id": 554,
"name": "airway heights skatepark",
"location": {
"city": "airway heights",
"state": "washington"
}
},
{
"id": 555,
"name": "ben root satepark",
"location": {
"city": "anacortes",
"state": "washington"
}
},
{
"id": 556,
"name": "arlington skatepark",
"location": {
"city": "arlington",
"state": "washington"
}
},
{
"id": 557,
"name": "auburn skatepark",
"location": {
"city": "auburn",
"state": "washington"
}
},
{
"id": 558,
"name": "sunset park",
"location": {
"city": "auburn",
"state": "washington"
}
},
{
"id": 561,
"name": "battleground park",
"location": {
"city": "battle ground",
"state": "washington"
}
},
{
"id": 562,
"name": "bellevue indoor skatepark",
"location": {
"city": "bellevue",
"state": "washington"
}
},
{
"id": 563,
"name": "crossroads park",
"location": {
"city": "bellevue",
"state": "washington"
}
},
{
"id": 566,
"name": "bellingham skatepark",
"location": {
"city": "bellingham",
"state": "washington"
}
},
{
"id": 567,
"name": "daubenspeck park",
"location": {
"city": "bingen",
"state": "washington"
}
},
{
"id": 568,
"name": "black diamond skatepark",
"location": {
"city": "black diamond",
"state": "washington"
}
},
{
"id": 569,
"name": "blaine skatepark",
"location": {
"city": "blaine",
"state": "washington"
}
},
{
"id": 570,
"name": "bonney lake skatepark",
"location": {
"city": "bonney lake",
"state": "washington"
}
},
{
"id": 572,
"name": "naval base bremerton skatepark",
"location": {
"city": "bremerton",
"state": "washington"
}
},
{
"id": 573,
"name": "brier skatepark",
"location": {
"city": "brier",
"state": "washington"
}
},
{
"id": 575,
"name": "burien skatepark",
"location": {
"city": "burien",
"state": "washington"
}
},
{
"id": 576,
"name": "burlington skatepark",
"location": {
"city": "burlington",
"state": "washington"
}
},
{
"id": 577,
"name": "camas/washougal skatepark",
"location": {
"city": "camas",
"state": "washington"
}
},
{
"id": 580,
"name": "fuller's twin city skate park",
"location": {
"city": "centralia",
"state": "washington"
}
},
{
"id": 552,
"name": "richard jennings skatepark",
"location": {
"city": "woodburn",
"state": "oregon"
}
},
{
"id": 588,
"name": "deer park",
"location": {
"city": "deer park",
"state": "washington"
}
},
{
"id": 591,
"name": "friendly grove skate court",
"location": {
"city": "east olympia",
"state": "washington"
}
},
{
"id": 606,
"name": "ekone park",
"location": {
"city": "goldendale",
"state": "washington"
}
},
{
"id": 607,
"name": "grand coulee skatepark",
"location": {
"city": "grand coulee",
"state": "washington"
}
},
{
"id": 583,
"name": "clarkston skatepark",
"location": {
"city": "clarkston",
"state": "washington"
}
},
{
"id": 584,
"name": "cle elum skatepark",
"location": {
"city": "cle elum",
"state": "washington"
}
},
{
"id": 585,
"name": "colfax skate park",
"location": {
"city": "colfax",
"state": "washington"
}
},
{
"id": 589,
"name": "des moines skatepark",
"location": {
"city": "des moines",
"state": "washington"
}
},
{
"id": 590,
"name": "duvall skatepark",
"location": {
"city": "duvall",
"state": "washington"
}
},
{
"id": 592,
"name": "kenroy skatepark",
"location": {
"city": "east wenatchee",
"state": "washington"
}
},
{
"id": 593,
"name": "eatonville skatepark",
"location": {
"city": "eatonville",
"state": "washington"
}
},
{
"id": 595,
"name": "ellensburg skatepark",
"location": {
"city": "ellensburg",
"state": "washington"
}
},
{
"id": 597,
"name": "ephrata skatepark",
"location": {
"city": "ephrata",
"state": "washington"
}
},
{
"id": 598,
"name": "walter e hall park",
"location": {
"city": "everett",
"state": "washington"
}
},
{
"id": 600,
"name": "fairfield skatepark",
"location": {
"city": "fairfield",
"state": "washington"
}
},
{
"id": 601,
"name": "steel lake skatepark",
"location": {
"city": "federal way",
"state": "washington"
}
},
{
"id": 602,
"name": "city of forks skatepark",
"location": {
"city": "forks",
"state": "washington"
}
},
{
"id": 603,
"name": "JBLM skatepark",
"location": {
"city": "fort lewis",
"state": "washington"
}
},
{
"id": 604,
"name": "friday harbor skatepark",
"location": {
"city": "friday harbor",
"state": "washington"
}
},
{
"id": 608,
"name": "hoquiam skatepark",
"location": {
"city": "hoquiam",
"state": "washington"
}
},
{
"id": 610,
"name": "kelso skatepark",
"location": {
"city": "kelso",
"state": "washington"
}
},
{
"id": 611,
"name": "jack v. crawford skatepark",
"location": {
"city": "kenmore",
"state": "washington"
}
},
{
"id": 612,
"name": "kennewick skatepark",
"location": {
"city": "kennewick",
"state": "washington"
}
},
{
"id": 613,
"name": "west hill skate park",
"location": {
"city": "kent",
"state": "washington"
}
},
{
"id": 614,
"name": "arbor heights 360 park",
"location": {
"city": "kent",
"state": "washington"
}
},
{
"id": 622,
"name": "kiwanis park skatepark",
"location": {
"city": "lakewood",
"state": "washington"
}
},
{
"id": 623,
"name": "south whidbey skatepark",
"location": {
"city": "langley",
"state": "washington"
}
},
{
"id": 626,
"name": "long beach skatepark",
"location": {
"city": "long beach",
"state": "washington"
}
},
{
"id": 641,
"name": "mount vernon skatepark",
"location": {
"city": "mount vernon",
"state": "washington"
}
},
{
"id": 645,
"name": "oak harbor skatepark",
"location": {
"city": "oak harbor",
"state": "washington"
}
},
{
"id": 617,
"name": "billy johnson skatepark",
"location": {
"city": "kingston",
"state": "washington"
}
},
{
"id": 618,
"name": "kirkland skatepark",
"location": {
"city": "kirkland",
"state": "washington"
}
},
{
"id": 619,
"name": "la center skatepark",
"location": {
"city": "la center",
"state": "washington"
}
},
{
"id": 620,
"name": "laconner swinomish skate park",
"location": {
"city": "la conner",
"state": "washington"
}
},
{
"id": 621,
"name": "rainer vista skatepark",
"location": {
"city": "lacey",
"state": "washington"
}
},
{
"id": 627,
"name": "longview skatepark",
"location": {
"city": "longview",
"state": "washington"
}
},
{
"id": 628,
"name": "lopez island skatepark",
"location": {
"city": "lopez island",
"state": "washington"
}
},
{
"id": 629,
"name": "lyle skatepark",
"location": {
"city": "lyle",
"state": "washington"
}
},
{
"id": 630,
"name": "lynndale skatepark",
"location": {
"city": "lynnwood",
"state": "washington"
}
},
{
"id": 632,
"name": "maple valley skatepark",
"location": {
"city": "maple valley",
"state": "washington"
}
},
{
"id": 633,
"name": "marysville skatepark",
"location": {
"city": "marysville",
"state": "washington"
}
},
{
"id": 634,
"name": "marysville (tulalip) skatepark",
"location": {
"city": "marysville (tulalip)",
"state": "washington"
}
},
{
"id": 635,
"name": "mercer island skatepark",
"location": {
"city": "mercer island",
"state": "washington"
}
},
{
"id": 636,
"name": "mill creek skatepark",
"location": {
"city": "mill creek",
"state": "washington"
}
},
{
"id": 637,
"name": "milltown commons skatepark",
"location": {
"city": "milton",
"state": "washington"
}
},
{
"id": 640,
"name": "moses lake skatepark",
"location": {
"city": "moses lake",
"state": "washington"
}
},
{
"id": 643,
"name": "newport community park",
"location": {
"city": "newport",
"state": "washington"
}
},
{
"id": 644,
"name": "north bend skatepark",
"location": {
"city": "north bend",
"state": "washington"
}
},
{
"id": 616,
"name": "kettle falls skate park",
"location": {
"city": "kettle falls",
"state": "washington"
}
},
{
"id": 648,
"name": "omak skatepark",
"location": {
"city": "omak",
"state": "washington"
}
},
{
"id": 655,
"name": "island lake skate camp",
"location": {
"city": "poulsbo",
"state": "washington"
}
},
{
"id": 657,
"name": "spring st skate park",
"location": {
"city": "pullman",
"state": "washington"
}
},
{
"id": 649,
"name": "scott stamnes memorial skatepark",
"location": {
"city": "orcas island",
"state": "washington"
}
},
{
"id": 650,
"name": "port angeles skatepark",
"location": {
"city": "port angeles",
"state": "washington"
}
},
{
"id": 651,
"name": "impact skate shop & park",
"location": {
"city": "port orchard",
"state": "washington"
}
},
{
"id": 653,
"name": "city of port townsend skatepark",
"location": {
"city": "port townsend",
"state": "washington"
}
},
{
"id": 656,
"name": "ej miller park",
"location": {
"city": "prosser",
"state": "washington"
}
},
{
"id": 658,
"name": "puyallup skatepark",
"location": {
"city": "puyallup",
"state": "washington"
}
},
{
"id": 659,
"name": "quincy skate park",
"location": {
"city": "quincy",
"state": "washington"
}
},
{
"id": 660,
"name": "raymond skatepark",
"location": {
"city": "raymond",
"state": "washington"
}
},
{
"id": 661,
"name": "the edge skatepark",
"location": {
"city": "redmond",
"state": "washington"
}
},
{
"id": 662,
"name": "liberty skatepark",
"location": {
"city": "renton",
"state": "washington"
}
},
{
"id": 664,
"name": "ridgefield skatepark",
"location": {
"city": "ridgefield",
"state": "washington"
}
},
{
"id": 665,
"name": "sammamish commons",
"location": {
"city": "sammamish",
"state": "washington"
}
},
{
"id": 667,
"name": "valley ridge skatepark",
"location": {
"city": "seatac",
"state": "washington"
}
},
{
"id": 668,
"name": "ballard commons bowl",
"location": {
"city": "seattle",
"state": "washington"
}
},
{
"id": 670,
"name": "seattle center skatepark",
"location": {
"city": "seattle",
"state": "washington"
}
},
{
"id": 671,
"name": "northgate skatepark",
"location": {
"city": "seattle",
"state": "washington"
}
},
{
"id": 672,
"name": "benefit park skatedot",
"location": {
"city": "seattle",
"state": "washington"
}
},
{
"id": 674,
"name": "dahl skatespot",
"location": {
"city": "seattle",
"state": "washington"
}
},
{
"id": 675,
"name": "delridge skatepark",
"location": {
"city": "seattle",
"state": "washington"
}
},
{
"id": 676,
"name": "jefferson/beacon hill skatepark",
"location": {
"city": "seattle",
"state": "washington"
}
},
{
"id": 677,
"name": "judkins skatepark",
"location": {
"city": "seattle",
"state": "washington"
}
},
{
"id": 682,
"name": "selah skatepark",
"location": {
"city": "selah",
"state": "washington"
}
},
{
"id": 686,
"name": "silverdale skatepark",
"location": {
"city": "silverdale",
"state": "washington"
}
},
{
"id": 706,
"name": "endeavour park skate spot",
"location": {
"city": "vancouver",
"state": "washington"
}
},
{
"id": 707,
"name": "gretchen fraser skate spot",
"location": {
"city": "vancouver",
"state": "washington"
}
},
{
"id": 680,
"name": "river city skatepark (southpark)",
"location": {
"city": "seattle",
"state": "washington"
}
},
{
"id": 681,
"name": "sedro-woolley skate park",
"location": {
"city": "sedro woolley",
"state": "washington"
}
},
{
"id": 683,
"name": "sequim skateboard park",
"location": {
"city": "sequim",
"state": "washington"
}
},
{
"id": 684,
"name": "shelton skatepark",
"location": {
"city": "shelton",
"state": "washington"
}
},
{
"id": 687,
"name": "snohomish skatepark",
"location": {
"city": "snohomish",
"state": "washington"
}
},
{
"id": 688,
"name": "soap lake park",
"location": {
"city": "soap lake",
"state": "washington"
}
},
{
"id": 690,
"name": "joe albi/dwight merkel skatepark",
"location": {
"city": "spokane",
"state": "washington"
}
},
{
"id": 691,
"name": "UTF skatepark",
"location": {
"city": "spokane",
"state": "washington"
}
},
{
"id": 692,
"name": "spokane valley ymca",
"location": {
"city": "spokane valley",
"state": "washington"
}
},
{
"id": 693,
"name": "heritage park",
"location": {
"city": "stanwood",
"state": "washington"
}
},
{
"id": 696,
"name": "stewart heights park",
"location": {
"city": "tacoma",
"state": "washington"
}
},
{
"id": 697,
"name": "thea's skatespot",
"location": {
"city": "tacoma",
"state": "washington"
}
},
{
"id": 698,
"name": "kandle park",
"location": {
"city": "tacoma",
"state": "washington"
}
},
{
"id": 700,
"name": "toledo skatepark",
"location": {
"city": "toledo",
"state": "washington"
}
},
{
"id": 702,
"name": "tukwila skate park",
"location": {
"city": "tukwila",
"state": "washington"
}
},
{
"id": 703,
"name": "university place skatepark",
"location": {
"city": "university place",
"state": "washington"
}
},
{
"id": 704,
"name": "pacific community skatepark",
"location": {
"city": "vancouver",
"state": "washington"
}
},
{
"id": 705,
"name": "swift skatepark",
"location": {
"city": "vancouver",
"state": "washington"
}
},
{
"id": 708,
"name": "vashon skatepark",
"location": {
"city": "vashon",
"state": "washington"
}
},
{
"id": 710,
"name": "fort walla walla",
"location": {
"city": "walla walla",
"state": "washington"
}
},
{
"id": 679,
"name": "marginal way skatepark",
"location": {
"city": "seattle",
"state": "washington"
}
},
{
"id": 720,
"name": "yelm skatepark",
"location": {
"city": "yelm",
"state": "washington"
}
},
{
"id": 714,
"name": "sk8er zone",
"location": {
"city": "wilson creek",
"state": "washington"
}
},
{
"id": 715,
"name": "winlock skatepark",
"location": {
"city": "winlock",
"state": "washington"
}
},
{
"id": 717,
"name": "woodland skatepark",
"location": {
"city": "woodland",
"state": "washington"
}
},
{
"id": 719,
"name": "kiwanis skatepark",
"location": {
"city": "yakima",
"state": "washington"
}
},
{
"id": 2,
"name": "american canyon skatepark",
"location": {
"city": "american canyon",
"state": "california"
}
},
{
"id": 11,
"name": "a-town park",
"location": {
"city": "atascadero",
"state": "california"
}
},
{
"id": 18,
"name": "planz park",
"location": {
"city": "bakersfield",
"state": "california"
}
},
{
"id": 60,
"name": "montevalle skate plaza",
"location": {
"city": "chula vista",
"state": "california"
}
},
{
"id": 33,
"name": "borrego springs aktepark",
"location": {
"city": "borrego springs",
"state": "california"
}
},
{
"id": 38,
"name": "buena park skatepark",
"location": {
"city": "buena park",
"state": "california"
}
},
{
"id": 46,
"name": "carlsbad skatepark",
"location": {
"city": "carlsbad",
"state": "california"
}
},
{
"id": 57,
"name": "chino hills skatepark",
"location": {
"city": "chino hills",
"state": "california"
}
},
{
"id": 61,
"name": "salt creek skate plaza",
"location": {
"city": "chula vista",
"state": "california"
}
},
{
"id": 71,
"name": "wilson skatepark",
"location": {
"city": "compton",
"state": "california"
}
},
{
"id": 79,
"name": "james huber skatepark",
"location": {
"city": "corona (eastvale)",
"state": "california"
}
},
{
"id": 91,
"name": "desert hot springs skatepark",
"location": {
"city": "desert hot springs",
"state": "california"
}
},
{
"id": 97,
"name": "duarte skatepark",
"location": {
"city": "duarte",
"state": "california"
}
},
{
"id": 713,
"name": "wilkeson skatepark",
"location": {
"city": "wilkeson",
"state": "washington"
}
},
{
"id": 114,
"name": "escondido sports center",
"location": {
"city": "escondido",
"state": "california"
}
},
{
"id": 119,
"name": "maldonado skatepark",
"location": {
"city": "firebaugh",
"state": "california"
}
},
{
"id": 120,
"name": "mathy bethune skatepark",
"location": {
"city": "florence",
"state": "california"
}
},
{
"id": 138,
"name": "arthur lee johnson memorial park",
"location": {
"city": "gardena",
"state": "california"
}
},
{
"id": 144,
"name": "condon park",
"location": {
"city": "grass valley",
"state": "california"
}
},
{
"id": 150,
"name": "hawaiian gardens skatepark",
"location": {
"city": "hawaiian gardens",
"state": "california"
}
},
{
"id": 151,
"name": "larry guidi skatepark",
"location": {
"city": "hawthorne",
"state": "california"
}
},
{
"id": 171,
"name": "la habra skatepark",
"location": {
"city": "la habra",
"state": "california"
}
},
{
"id": 179,
"name": "laguna hills skatepark",
"location": {
"city": "laguna hills",
"state": "california"
}
},
{
"id": 180,
"name": "laguna niguel skatepark",
"location": {
"city": "laguna niguel",
"state": "california"
}
},
{
"id": 194,
"name": "cherry park/bixby park",
"location": {
"city": "long beach",
"state": "california"
}
},
{
"id": 201,
"name": "silverado skatepark",
"location": {
"city": "long beach",
"state": "california"
}
},
{
"id": 207,
"name": "nickerson gardens",
"location": {
"city": "los angeles",
"state": "california"
}
},
{
"id": 209,
"name": "westchester skate plaza",
"location": {
"city": "los angeles",
"state": "california"
}
},
{
"id": 219,
"name": "north hollywood skate plaza",
"location": {
"city": "los angeles (hollywood)",
"state": "california"
}
},
{
"id": 225,
"name": "wlcac skatepark",
"location": {
"city": "los angeles (watts)",
"state": "california"
}
},
{
"id": 235,
"name": "martinez skatepark",
"location": {
"city": "martinez",
"state": "california"
}
},
{
"id": 293,
"name": "pleasanton skatepark #2",
"location": {
"city": "pleasanton",
"state": "california"
}
},
{
"id": 243,
"name": "monrovia skatepark",
"location": {
"city": "monrovia",
"state": "california"
}
},
{
"id": 250,
"name": "moreno valley skatepark",
"location": {
"city": "moreno valley",
"state": "california"
}
},
{
"id": 264,
"name": "youth uprising skate plaza",
"location": {
"city": "oakland",
"state": "california"
}
},
{
"id": 269,
"name": "martin luther king jr. skatepark",
"location": {
"city": "oceanside",
"state": "california"
}
},
{
"id": 271,
"name": "vans skatepark",
"location": {
"city": "orange",
"state": "california"
}
},
{
"id": 287,
"name": "paragon skatepark",
"location": {
"city": "perris",
"state": "california"
}
},
{
"id": 291,
"name": "placerville skatepark",
"location": {
"city": "placerville",
"state": "california"
}
},
{
"id": 298,
"name": "quincy skatepark",
"location": {
"city": "quincy",
"state": "california"
}
},
{
"id": 311,
"name": "riverbank skatepark",
"location": {
"city": "riverbank",
"state": "california"
}
},
{
"id": 317,
"name": "28th & b skatepark",
"location": {
"city": "sacramento",
"state": "california"
}
},
{
"id": 320,
"name": "warren skatepark",
"location": {
"city": "sacramento",
"state": "california"
}
},
{
"id": 325,
"name": "tanzanite skatepark",
"location": {
"city": "sacramento",
"state": "california"
}
},
{
"id": 332,
"name": "blair skatepark",
"location": {
"city": "san bernardino",
"state": "california"
}
},
{
"id": 345,
"name": "san dimas skatepark",
"location": {
"city": "san dimas",
"state": "california"
}
},
{
"id": 353,
"name": "lake cunningham regional skatepark",
"location": {
"city": "san jose",
"state": "california"
}
},
{
"id": 428,
"name": "ramsay park",
"location": {
"city": "watsonville",
"state": "california"
}
},
{
"id": 372,
"name": "santa clarita skatepark",
"location": {
"city": "santa clarita",
"state": "california"
}
},
{
"id": 374,
"name": "mike fox park skatepark",
"location": {
"city": "santa cruz",
"state": "california"
}
},
{
"id": 386,
"name": "berry park",
"location": {
"city": "selma",
"state": "california"
}
},
{
"id": 397,
"name": "skate house skatepark",
"location": {
"city": "south lake tahoe",
"state": "california"
}
},
{
"id": 400,
"name": "anderson park",
"location": {
"city": "stockton",
"state": "california"
}
},
{
"id": 401,
"name": "sheldon skatepark",
"location": {
"city": "sun valley",
"state": "california"
}
},
{
"id": 412,
"name": "tulare skatepark",
"location": {
"city": "tulare",
"state": "california"
}
},
{
"id": 425,
"name": "aura skatepark",
"location": {
"city": "vista",
"state": "california"
}
},
{
"id": 431,
"name": "westlake village skatepark",
"location": {
"city": "westlake village",
"state": "california"
}
},
{
"id": 442,
"name": "albany skatepark",
"location": {
"city": "albany",
"state": "oregon"
}
},
{
"id": 451,
"name": "ponderosa skatepark",
"location": {
"city": "bend",
"state": "oregon"
}
},
{
"id": 456,
"name": "canby skatepark",
"location": {
"city": "canby",
"state": "oregon"
}
},
{
"id": 457,
"name": "cannon beach skatepark",
"location": {
"city": "cannon beach",
"state": "oregon"
}
},
{
"id": 474,
"name": "churchil skatepark",
"location": {
"city": "eugene",
"state": "oregon"
}
},
{
"id": 482,
"name": "grants pass skatepark",
"location": {
"city": "grants pass",
"state": "oregon"
}
},
{
"id": 487,
"name": "hermiston skatepark",
"location": {
"city": "hermiston",
"state": "oregon"
}
},
{
"id": 489,
"name": "hood river skatepark",
"location": {
"city": "hood river",
"state": "oregon"
}
},
{
"id": 501,
"name": "bear creek saktepark",
"location": {
"city": "medford",
"state": "oregon"
}
},
{
"id": 511,
"name": "clackamette skatepark",
"location": {
"city": "oregon city",
"state": "oregon"
}
},
{
"id": 519,
"name": "gabriel park",
"location": {
"city": "portland",
"state": "oregon"
}
},
{
"id": 523,
"name": "jim griffith memorial skatepark",
"location": {
"city": "portland (tigard)",
"state": "oregon"
}
},
{
"id": 528,
"name": "stewart park",
"location": {
"city": "roseburg",
"state": "oregon"
}
},
{
"id": 536,
"name": "sisters skatepark",
"location": {
"city": "sisters",
"state": "oregon"
}
},
{
"id": 547,
"name": "west linn skatepark",
"location": {
"city": "west linn",
"state": "oregon"
}
},
{
"id": 550,
"name": "wilsonville skatepark",
"location": {
"city": "wilsonville",
"state": "oregon"
}
},
{
"id": 551,
"name": "riverbend park",
"location": {
"city": "winston",
"state": "oregon"
}
},
{
"id": 559,
"name": "muckleshoot reservation skatepark",
"location": {
"city": "auburn",
"state": "washington"
}
},
{
"id": 564,
"name": "highland center skate plaza",
"location": {
"city": "bellevue",
"state": "washington"
}
},
{
"id": 578,
"name": "carnation skatepark",
"location": {
"city": "carnation",
"state": "washington"
}
},
{
"id": 581,
"name": "lake chelan skatepark",
"location": {
"city": "chelan",
"state": "washington"
}
},
{
"id": 586,
"name": "164th avenue skate court",
"location": {
"city": "covington",
"state": "washington"
}
},
{
"id": 594,
"name": "edmonds skatepark",
"location": {
"city": "edmonds",
"state": "washington"
}
},
{
"id": 599,
"name": "wiggums hollow park",
"location": {
"city": "everett",
"state": "washington"
}
},
{
"id": 605,
"name": "gig harbor skatepark",
"location": {
"city": "gig harbor",
"state": "washington"
}
},
{
"id": 615,
"name": "kent lions skatepark",
"location": {
"city": "kent",
"state": "washington"
}
},
{
"id": 631,
"name": "martha lake airport skatepark",
"location": {
"city": "lynnwood",
"state": "washington"
}
},
{
"id": 638,
"name": "lake tye skatepark",
"location": {
"city": "monroe",
"state": "washington"
}
},
{
"id": 8,
"name": "bonita skatepark",
"location": {
"city": "arcadia",
"state": "california"
}
},
{
"id": 20,
"name": "baldwin park skatepark",
"location": {
"city": "baldwin park",
"state": "california"
}
},
{
"id": 28,
"name": "sugarloaf skatepark",
"location": {
"city": "big bear lake",
"state": "california"
}
},
{
"id": 39,
"name": "burbank skatepark",
"location": {
"city": "burbank",
"state": "california"
}
},
{
"id": 51,
"name": "cayucos skatepark",
"location": {
"city": "cayucos",
"state": "california"
}
},
{
"id": 59,
"name": "len moore skatepark",
"location": {
"city": "chula vista",
"state": "california"
}
},
{
"id": 62,
"name": "venetia skate plaza",
"location": {
"city": "chula vista",
"state": "california"
}
},
{
"id": 74,
"name": "corona city park",
"location": {
"city": "corona",
"state": "california"
}
},
{
"id": 82,
"name": "volcom skatepark",
"location": {
"city": "costa mesa",
"state": "california"
}
},
{
"id": 646,
"name": "volunteer park",
"location": {
"city": "oak harbor",
"state": "washington"
}
},
{
"id": 652,
"name": "south kitsap skatepark",
"location": {
"city": "port orchard",
"state": "washington"
}
},
{
"id": 663,
"name": "jeanette taylor skatepark",
"location": {
"city": "richland",
"state": "washington"
}
},
{
"id": 678,
"name": "lower woodland skatepark",
"location": {
"city": "seattle",
"state": "washington"
}
},
{
"id": 689,
"name": "hillyard skatepark",
"location": {
"city": "spokane",
"state": "washington"
}
},
{
"id": 694,
"name": "sumner skatepark",
"location": {
"city": "sumner",
"state": "washington"
}
},
{
"id": 699,
"name": "sprinker skatepark",
"location": {
"city": "tacoma (spanaway)",
"state": "washington"
}
},
{
"id": 709,
"name": "walla walla skate park",
"location": {
"city": "walla walla",
"state": "washington"
}
},
{
"id": 712,
"name": "revolution snow & skate",
"location": {
"city": "wenatchee",
"state": "washington"
}
},
{
"id": 716,
"name": "woodinville rotary skate/bmx park",
"location": {
"city": "woodinville",
"state": "washington"
}
},
{
"id": 100,
"name": "kennedy skatepark",
"location": {
"city": "el cajon",
"state": "california"
}
},
{
"id": 116,
"name": "allan witt rotary skatepark",
"location": {
"city": "fairfield",
"state": "california"
}
},
{
"id": 129,
"name": "lion's den skatepark",
"location": {
"city": "fresno",
"state": "california"
}
},
{
"id": 136,
"name": "galt skatepark",
"location": {
"city": "galt",
"state": "california"
}
},
{
"id": 145,
"name": "patriot park",
"location": {
"city": "greenfield",
"state": "california"
}
},
{
"id": 154,
"name": "carson warner memorial skatepark",
"location": {
"city": "healdsburg",
"state": "california"
}
},
{
"id": 163,
"name": "rogers park skatepark",
"location": {
"city": "inglewood",
"state": "california"
}
},
{
"id": 177,
"name": "la verne skatepark",
"location": {
"city": "la verne",
"state": "california"
}
},
{
"id": 181,
"name": "mcvicker canyon skate park",
"location": {
"city": "lake elsinore",
"state": "california"
}
},
{
"id": 195,
"name": "drake park skatepark",
"location": {
"city": "long beach",
"state": "california"
}
},
{
"id": 203,
"name": "belvedere skatepark",
"location": {
"city": "los angeles",
"state": "california"
}
},
{
"id": 208,
"name": "stoner skate plaza",
"location": {
"city": "los angeles",
"state": "california"
}
},
{
"id": 216,
"name": "jackie tatum skate plaza",
"location": {
"city": "los angeles",
"state": "california"
}
},
{
"id": 221,
"name": "cardenas skate plaza",
"location": {
"city": "los angeles (panorama city)",
"state": "california"
}
},
{
"id": 240,
"name": "millbrae skatepark",
"location": {
"city": "millbrae",
"state": "california"
}
},
{
"id": 248,
"name": "poindexter skatepark",
"location": {
"city": "moorpark",
"state": "california"
}
},
{
"id": 255,
"name": "cal oaks skatepark",
"location": {
"city": "murrieta",
"state": "california"
}
},
{
"id": 270,
"name": "ojai skatepark",
"location": {
"city": "ojai",
"state": "california"
}
},
{
"id": 478,
"name": "miller park",
"location": {
"city": "florence",
"state": "oregon"
}
},
{
"id": 278,
"name": "pala skatepark",
"location": {
"city": "pala",
"state": "california"
}
},
{
"id": 299,
"name": "mather sports center skatepark",
"location": {
"city": "rancho cordova",
"state": "california"
}
},
{
"id": 305,
"name": "fergusson skatepark",
"location": {
"city": "rialto",
"state": "california"
}
},
{
"id": 327,
"name": "artivio guerrero park",
"location": {
"city": "sacramento",
"state": "california"
}
},
{
"id": 334,
"name": "san clemente skatepark",
"location": {
"city": "san clemente",
"state": "california"
}
},
{
"id": 349,
"name": "potrero del sol skatepark",
"location": {
"city": "san francisco",
"state": "california"
}
},
{
"id": 360,
"name": "arroyo skate park",
"location": {
"city": "san lorenzo",
"state": "california"
}
},
{
"id": 365,
"name": "channel street",
"location": {
"city": "san pedro",
"state": "california"
}
},
{
"id": 379,
"name": "the cove skatepark",
"location": {
"city": "santa monica",
"state": "california"
}
},
{
"id": 389,
"name": "skatelab",
"location": {
"city": "simi valley",
"state": "california"
}
},
{
"id": 402,
"name": "pink motel",
"location": {
"city": "sun valley",
"state": "california"
}
},
{
"id": 406,
"name": "ollie mountain",
"location": {
"city": "tehachapi",
"state": "california"
}
},
{
"id": 419,
"name": "valley center skate spot",
"location": {
"city": "valley center",
"state": "california"
}
},
{
"id": 430,
"name": "orangewood skatepark",
"location": {
"city": "west covina",
"state": "california"
}
},
{
"id": 437,
"name": "yuba city skatepark",
"location": {
"city": "yuba city",
"state": "california"
}
},
{
"id": 452,
"name": "ponderosa skatepark #2",
"location": {
"city": "bend",
"state": "oregon"
}
},
{
"id": 460,
"name": "d-block indoor skatepark",
"location": {
"city": "clackamas",
"state": "oregon"
}
},
{
"id": 470,
"name": "wade creek park",
"location": {
"city": "estacada",
"state": "oregon"
}
},
{
"id": 485,
"name": "happy valley skatepark",
"location": {
"city": "happy valley",
"state": "oregon"
}
},
{
"id": 498,
"name": "kirtsis skatepark",
"location": {
"city": "lincoln city",
"state": "oregon"
}
},
{
"id": 506,
"name": "myrtle point skatepark",
"location": {
"city": "myrtle point",
"state": "oregon"
}
},
{
"id": 526,
"name": "redmond skatepark",
"location": {
"city": "redmond",
"state": "oregon"
}
},
{
"id": 533,
"name": "wayne potter memorial skatepark",
"location": {
"city": "sheridan",
"state": "oregon"
}
},
{
"id": 542,
"name": "toledo skatepark",
"location": {
"city": "toledo",
"state": "oregon"
}
},
{
"id": 560,
"name": "bainbridge island skatepark",
"location": {
"city": "bainbridge island",
"state": "washington"
}
},
{
"id": 565,
"name": "lakemont skate court",
"location": {
"city": "bellevue",
"state": "washington"
}
},
{
"id": 579,
"name": "castle rock skatepark",
"location": {
"city": "castle rock",
"state": "washington"
}
},
{
"id": 582,
"name": "chewelah skatepark",
"location": {
"city": "chewelah",
"state": "washington"
}
},
{
"id": 587,
"name": "cusick skatepark",
"location": {
"city": "cusick",
"state": "washington"
}
},
{
"id": 596,
"name": "enumclaw skatepark",
"location": {
"city": "enumclaw",
"state": "washington"
}
},
{
"id": 609,
"name": "issaquah skatepark",
"location": {
"city": "issaquah",
"state": "washington"
}
},
{
"id": 625,
"name": "liberty lake skatepark",
"location": {
"city": "liberty lake",
"state": "washington"
}
},
{
"id": 642,
"name": "mukilteo ymca skate park",
"location": {
"city": "mukilteo",
"state": "washington"
}
},
{
"id": 647,
"name": "olympia skatepark",
"location": {
"city": "olympia",
"state": "washington"
}
},
{
"id": 654,
"name": "raab park",
"location": {
"city": "poulsbo",
"state": "washington"
}
},
{
"id": 666,
"name": "seatac skatepark",
"location": {
"city": "seatac",
"state": "washington"
}
},
{
"id": 673,
"name": "crown hill skatepark",
"location": {
"city": "seattle",
"state": "washington"
}
},
{
"id": 685,
"name": "paramount skatepark",
"location": {
"city": "shoreline",
"state": "washington"
}
},
{
"id": 695,
"name": "norpoint skatepark",
"location": {
"city": "tacoma",
"state": "washington"
}
},
{
"id": 701,
"name": "tonasket skatepark",
"location": {
"city": "tonasket",
"state": "washington"
}
},
{
"id": 711,
"name": "wenatchee skatepark",
"location": {
"city": "wenatchee",
"state": "washington"
}
},
{
"id": 1,
"name": "alameda skatepark",
"location": {
"city": "alameda",
"state": "california"
}
},
{
"id": 23,
"name": "bell gardens skatepark",
"location": {
"city": "bell gardens",
"state": "california"
}
},
{
"id": 63,
"name": "veterans skate plaza",
"location": {
"city": "chula vista",
"state": "california"
}
},
{
"id": 718,
"name": "chesterley skate park",
"location": {
"city": "yakima",
"state": "washington"
}
},
{
"id": 104,
"name": "el segundo skatepark",
"location": {
"city": "el segundo",
"state": "california"
}
},
{
"id": 122,
"name": "jesse turner skatepark (fontana north)",
"location": {
"city": "fontana",
"state": "california"
}
},
{
"id": 155,
"name": "hermosa beach skatepark",
"location": {
"city": "hermosa beach",
"state": "california"
}
},
{
"id": 236,
"name": "benito juarez skate spot",
"location": {
"city": "maywood",
"state": "california"
}
},
{
"id": 257,
"name": "kennedy park",
"location": {
"city": "napa",
"state": "california"
}
},
{
"id": 302,
"name": "red bluff skatepark",
"location": {
"city": "red bluff",
"state": "california"
}
},
{
"id": 335,
"name": "mission valley ymca",
"location": {
"city": "san diego",
"state": "california"
}
},
{
"id": 362,
"name": "hollandia park",
"location": {
"city": "san marcos",
"state": "california"
}
},
{
"id": 377,
"name": "ymca",
"location": {
"city": "santa maria",
"state": "california"
}
},
{
"id": 466,
"name": "dallas skatepark",
"location": {
"city": "dallas",
"state": "oregon"
}
},
{
"id": 494,
"name": "junction city skatepark",
"location": {
"city": "junction city",
"state": "oregon"
}
},
{
"id": 516,
"name": "commonwealth skatepark",
"location": {
"city": "portland",
"state": "oregon"
}
},
{
"id": 571,
"name": "bremerton skatepark",
"location": {
"city": "bremerton",
"state": "washington"
}
},
{
"id": 624,
"name": "leavenworth skatepark",
"location": {
"city": "leavenworth",
"state": "washington"
}
},
{
"id": 639,
"name": "morton skatepark",
"location": {
"city": "morton",
"state": "washington"
}
},
{
"id": 669,
"name": "roxhill skatepark",
"location": {
"city": "seattle",
"state": "washington"
}
}
]